#version,serial,flight,time,state,state_name,acceleration,height,speed,drogue_voltage,main_voltage,battery_voltage,accel_x,accel_y,accel_z,gyro_roll,gyro_pitch,gyro_yaw,mag_x,mag_y,mag_z,tilt,pyro
6, 12779, 1,    -0.30, 3,   boost,  -19.64,    0.00,    0.00, 0.00, 0.01, 2.76,  -9.74,  -0.68,  -1.02,   0.36,   0.46,   0.18,  -0.54,   0.09,   0.00,   7.29,-5.59
6, 12779, 1,    -0.29, 3,   boost,  -19.66,    0.00,    0.00, 0.00, 0.01, 2.76,  -9.76,  -0.73,  -1.06,  -0.07,   0.03,  -0.07,  -0.54,   0.09,   0.00,   7.29,-5.59
6, 12779, 1,    -0.28, 3,   boost,  -19.67,    0.00,    0.00, 0.00, 0.01, 2.75,  -9.77,  -0.73,  -1.04,   0.12,   0.15,  -0.13,  -0.54,   0.09,   0.01,   7.29,-5.59
6, 12779, 1,    -0.27, 3,   boost,  -19.69,    0.00,    0.00, 0.00, 0.00, 2.75,  -9.79,  -0.73,  -1.03,   0.12,  -0.15,   0.18,  -0.54,   0.09,   0.00,   7.29,-5.59
6, 12779, 1,    -0.26, 3,   boost,  -19.66,    0.00,    0.00, 0.00, 0.02, 2.75,  -9.76,  -0.76,  -1.03,   0.18,   0.21,   0.05,  -0.54,   0.09,   0.00,   7.29,-5.59
6, 12779, 1,    -0.25, 3,   boost,  -19.68,    0.00,    0.00, 0.00, 0.01, 2.75,  -9.78,  -0.73,  -1.07,  -0.31,  -0.09,  -0.25,  -0.54,   0.10,   0.01,   7.29,-5.59
6, 12779, 1,    -0.24, 3,   boost,  -19.66,    0.00,    0.00, 0.00, 0.00, 2.75,  -9.76,  -0.73,  -1.04,  -0.31,   0.09,  -0.01,  -0.54,   0.09,   0.01,   7.29,-5.59
6, 12779, 1,    -0.23, 3,   boost,  -19.66,    0.00,    0.00, 0.00, 0.00, 2.75,  -9.76,  -0.70,  -1.03,   0.24,   0.27,  -0.31,  -0.54,   0.09,   0.00,   7.29,-5.59
6, 12779, 1,    -0.22, 3,   boost,  -19.67,    0.00,    0.00, 0.00, 0.00, 2.75,  -9.77,  -0.70,  -0.96,   0.42,   0.15,  -0.13,  -0.54,   0.10,   0.00,   7.29,-5.59
6, 12779, 1,    -0.21, 3,   boost,  -19.67,    0.00,    0.00, 0.00, 0.00, 2.75,  -9.77,  -0.66,  -0.99,  -0.13,   0.03,  -0.19,  -0.54,   0.09,   0.00,   7.29,-5.59
6, 12779, 1,    -0.20, 3,   boost,  -19.70,    0.00,    0.00, 0.00, 0.00, 2.75,  -9.80,  -0.71,  -0.98,  -0.43,  -0.09,  -0.25,  -0.54,   0.10,   0.00,   7.29,-5.59
6, 12779, 1,    -0.19, 3,   boost,  -19.68,    0.00,    0.00, 0.00, 0.00, 2.75,  -9.78,  -0.65,  -0.97,   0.05,  -0.09,  -0.13,  -0.53,   0.10,  -0.00,   7.29,-5.59
6, 12779, 1,    -0.18, 3,   boost,  -19.63,    0.00,    0.00, 0.00, 0.00, 2.75,  -9.73,  -0.65,  -0.98,  -0.01,  -0.27,  -0.25,  -0.53,   0.10,  -0.00,   7.29,-5.59
6, 12779, 1,    -0.17, 3,   boost,  -19.66,    0.00,    0.00, 0.00, 0.01, 2.75,  -9.76,  -0.62,  -1.03,  -0.56,   0.21,  -0.19,  -0.53,   0.10,  -0.00,   7.29,-5.59
6, 12779, 1,    -0.16, 3,   boost,  -19.65,    0.00,    0.00, 0.00, 0.00, 2.75,  -9.75,  -0.60,  -1.06,   0.36,  -0.76,  -0.19,  -0.54,   0.10,   0.00,   7.29,-5.59
6, 12779, 1,    -0.15, 3,   boost,  -19.63,    0.00,    0.00, 0.00, 0.01, 2.75,  -9.73,  -0.58,  -1.06,  -0.25,  -0.40,  -0.13,  -0.54,   0.10,   0.00,   7.29,-5.59
6, 12779, 1,    -0.14, 3,   boost,  -19.65,    0.00,    0.00, 0.00, 0.00, 2.75,  -9.75,  -0.59,  -1.06,  -0.19,   0.03,   0.05,  -0.54,   0.10,   0.01,   7.29,-5.59
6, 12779, 1,    -0.13, 3,   boost,  -19.68,    0.00,    0.00, 0.00, 0.01, 2.75,  -9.78,  -0.58,  -1.07,  -0.13,  -0.34,  -0.07,  -0.54,   0.09,   0.00,   7.29,-5.59
6, 12779, 1,    -0.12, 3,   boost,  -19.67,    0.00,    0.00, 0.00, 0.00, 2.75,  -9.77,  -0.57,  -1.06,  -0.31,  -0.21,   0.05,  -0.54,   0.09,   0.00,   7.29,-5.59
6, 12779, 1,    -0.11, 3,   boost,  -19.66,    0.00,    0.00, 0.00, 0.01, 2.75,  -9.76,  -0.61,  -1.13,  -0.37,  -0.15,  -0.13,  -0.54,   0.09,   0.00,   7.29,-5.59
6, 12779, 1,    -0.10, 3,   boost,  -19.68,    0.00,    0.00, 0.00, 0.00, 2.75,  -9.78,  -0.57,  -1.12,  -0.43,  -0.21,   0.11,  -0.54,   0.09,   0.01,   7.29,-5.59
6, 12779, 1,    -0.09, 3,   boost,  -19.69,    0.00,    0.00, 0.00, 0.02, 2.75,  -9.79,  -0.57,  -1.14,  -0.80,   0.03,   0.30,  -0.54,   0.09,   0.01,   7.29,-5.59
6, 12779, 1,    -0.08, 3,   boost,  -19.66,    0.00,    0.00, 0.00, 0.00, 2.75,  -9.76,  -0.63,  -1.12,  -0.62,  -0.15,   0.24,  -0.54,   0.10,   0.00,   7.29,-5.59
6, 12779, 1,    -0.07, 3,   boost,  -19.84,    0.00,    0.00, 0.00, 0.02, 2.75,  -9.94,  -0.70,  -1.19,  -1.04,  -0.21,   0.30,  -0.54,   0.10,   0.00,   7.29,-5.59
6, 12779, 1,    -0.06, 3,   boost,  -20.47,    0.00,    0.00, 0.00, 0.00, 2.75, -10.57,  -0.82,  -1.14,  -2.63,   0.03,   0.30,  -0.54,   0.09,   0.00,   7.29,-5.59
6, 12779, 1,    -0.05, 3,   boost,  -61.57,    0.00,    0.00, 0.00, 0.00, 2.75, -51.61,   1.77,  -0.85,  -1.17,  -2.04,   1.46,  -0.54,   0.10,   0.00,   7.29,-5.59
6, 12779, 1,    -0.04, 3,   boost,  -94.25,    0.00,    0.00, 0.00, 0.00, 2.76, -84.24,  -3.70,   0.11, -74.71,   0.95,  -2.57,  -0.53,   0.10,  -0.00,   7.29,-5.59
6, 12779, 1,    -0.03, 3,   boost, -192.65,    0.00,    0.00, 0.00, 0.00, 2.75,-182.50,  -9.09,  -4.47,-112.80,  -4.49,  26.91,  -0.53,   0.10,  -0.00,   7.29,-5.59
6, 12779, 1,    -0.02, 3,   boost, -100.97,    0.00,    0.00, 0.00, 0.02, 2.75, -90.95,   1.73,  -3.33,-135.99, -11.02,  34.36,  -0.53,   0.11,  -0.00,   7.29,-5.59
6, 12779, 1,    -0.01, 3,   boost, -102.82,    0.00,    0.00, 0.00, 0.00, 2.75, -92.80,   0.32,  -2.40,-152.47,  -0.82,  16.11,  -0.53,   0.11,   0.01,   7.29,-5.59
6, 12779, 1,     0.00, 3,   boost,  -99.87,    0.00,    0.00, 0.00, 0.00, 2.75, -89.85, -24.72,  -7.23,-146.74,   6.01, -13.74,  -0.53,   0.12,   0.01,   7.29,-5.59
6, 12779, 1,     0.00, 3,   boost,  -99.87,    0.00,    0.00, 0.00, 0.00, 2.75, -89.85, -24.72,  -7.23,-146.74,   6.01, -13.74,  -0.53,   0.12,   0.01,   7.29,-5.59
6, 12779, 1,     0.00, 3,   boost,  -99.87,    0.00,    0.00, 0.00, 0.00, 2.75, -89.85, -24.72,  -7.23,-146.74,   6.01, -13.74,  -0.53,   0.12,   0.01,   7.29,-5.59
6, 12779, 1,     0.00, 3,   boost,  -99.87,    0.00,    0.00, 0.00, 0.00, 2.75, -89.85, -24.72,  -7.23,-146.74,   6.01, -13.74,  -0.53,   0.12,   0.01,   7.29,-5.59
6, 12779, 1,     0.00, 3,   boost,  -99.87,    0.00,    0.00, 0.00, 0.00, 2.75, -89.85, -24.72,  -7.23,-146.74,   6.01, -13.74,  -0.53,   0.12,   0.01,   7.29,-5.59
6, 12779, 1,     0.00, 3,   boost,  -99.87,    0.00,    0.00, 0.00, 0.00, 2.75, -89.85, -24.72,  -7.23,-146.74,   6.01, -13.74,  -0.53,   0.12,   0.01,   7.29,-5.59
6, 12779, 1,     0.00, 3,   boost,  -99.87,    0.00,    0.00, 0.00, 0.00, 2.75, -89.85, -24.72,  -7.23,-146.74,   6.01, -13.74,  -0.53,   0.12,   0.01,   7.29,-5.59
6, 12779, 1,     0.00, 3,   boost,  -99.87,    0.00,    0.00, 0.00, 0.00, 2.75, -89.85, -24.72,  -7.23,-146.74,   6.01, -13.74,  -0.53,   0.12,   0.01,   7.29,-5.59
6, 12779, 1,     0.00, 3,   boost,  -99.87,    0.00,    0.00, 0.00, 0.00, 2.75, -89.85, -24.72,  -7.23,-146.74,   6.01, -13.74,  -0.53,   0.12,   0.01,   7.29,-5.59
6, 12779, 1,     0.00, 3,   boost,  -99.87,    0.00,    0.00, 0.00, 0.00, 2.75, -89.85, -24.72,  -7.23,-146.74,   6.01, -13.74,  -0.53,   0.12,   0.01,   7.28,-5.59
6, 12779, 1,     0.00, 3,   boost,  -99.87,    0.00,    0.00, 0.00, 0.00, 2.75, -89.85, -24.72,  -7.23,-146.74,   6.01, -13.74,  -0.53,   0.12,   0.01,   7.28,-5.59
6, 12779, 1,     0.00, 3,   boost,  -99.87,    0.00,    0.00, 0.00, 0.00, 2.75, -89.85, -24.72,  -7.23,-146.74,   6.01, -13.74,  -0.53,   0.12,   0.01,   7.28,-5.59
6, 12779, 1,     0.00, 3,   boost,  -99.87,    0.00,    0.00, 0.00, 0.00, 2.75, -89.85, -24.72,  -7.23,-146.74,   6.01, -13.74,  -0.53,   0.12,   0.01,   7.28,-5.59
6, 12779, 1,     0.00, 3,   boost,  -99.87,    0.00,    0.00, 0.00, 0.00, 2.75, -89.85, -24.72,  -7.23,-146.74,   6.01, -13.74,  -0.53,   0.12,   0.01,   7.28,-5.59
6, 12779, 1,     0.00, 3,   boost,  -99.87,    0.00,    0.00, 0.00, 0.00, 2.75, -89.85, -24.72,  -7.23,-146.74,   6.01, -13.74,  -0.53,   0.12,   0.01,   7.28,-5.59
6, 12779, 1,     0.00, 3,   boost,  -99.87,    0.00,    0.00, 0.00, 0.00, 2.75, -89.85, -24.72,  -7.23,-146.74,   6.01, -13.74,  -0.53,   0.12,   0.01,   7.29,-5.59
6, 12779, 1,     0.00, 3,   boost,  -99.87,    0.00,    0.00, 0.00, 0.00, 2.75, -89.85, -24.72,  -7.23,-146.74,   6.01, -13.74,  -0.53,   0.12,   0.01,   7.29,-5.59
6, 12779, 1,     0.00, 3,   boost,  -99.87,    0.00,    0.00, 0.00, 0.00, 2.75, -89.85, -24.72,  -7.23,-146.74,   6.01, -13.74,  -0.53,   0.12,   0.01,   7.29,-5.59
6, 12779, 1,     0.00, 3,   boost,  -99.87,    0.00,    0.00, 0.00, 0.00, 2.75, -89.85, -24.72,  -7.23,-146.74,   6.01, -13.74,  -0.53,   0.12,   0.01,   7.29,-5.59
6, 12779, 1,     0.00, 3,   boost,  -99.87,    0.00,    0.00, 0.00, 0.00, 2.75, -89.85, -24.72,  -7.23,-146.74,   6.01, -13.74,  -0.53,   0.12,   0.01,   7.29,-5.59
6, 12779, 1,     0.00, 3,   boost,  -99.87,    0.00,    0.00, 0.00, 0.00, 2.75, -89.85, -24.72,  -7.23,-146.74,   6.01, -13.74,  -0.53,   0.12,   0.01,   7.29,-5.59
6, 12779, 1,     0.00, 3,   boost,  -99.87,    0.00,    0.00, 0.00, 0.00, 2.75, -89.85, -24.72,  -7.23,-146.74,   6.01, -13.74,  -0.53,   0.12,   0.01,   7.30,-5.59
6, 12779, 1,     0.00, 3,   boost,  -99.87,    0.00,    0.00, 0.00, 0.00, 2.75, -89.85, -24.72,  -7.23,-146.74,   6.01, -13.74,  -0.53,   0.12,   0.01,   7.30,-5.59
6, 12779, 1,     0.00, 3,   boost,  -99.87,    0.00,    0.00, 0.00, 0.00, 2.75, -89.85, -24.72,  -7.23,-146.74,   6.01, -13.74,  -0.53,   0.12,   0.01,   7.30,-5.59
6, 12779, 1,     0.00, 3,   boost,  -99.87,    0.00,    0.00, 0.00, 0.00, 2.75, -89.85, -24.72,  -7.23,-146.74,   6.01, -13.74,  -0.53,   0.12,   0.01,   7.30,-5.59
6, 12779, 1,     0.00, 3,   boost,  -99.87,    0.00,    0.00, 0.00, 0.00, 2.75, -89.85, -24.72,  -7.23,-146.74,   6.01, -13.74,  -0.53,   0.12,   0.01,   7.31,-5.59
6, 12779, 1,     0.00, 3,   boost,  -99.87,    0.00,    0.00, 0.00, 0.00, 2.75, -89.85, -24.72,  -7.23,-146.74,   6.01, -13.74,  -0.53,   0.12,   0.01,   7.33,-5.59
6, 12779, 1,     0.00, 3,   boost,  -99.87,    0.00,    0.00, 0.00, 0.00, 2.75, -89.85, -24.72,  -7.23,-146.74,   6.01, -13.74,  -0.53,   0.12,   0.01,   7.31,-5.59
6, 12779, 1,     0.00, 3,   boost,  -99.87,    0.00,    0.00, 0.00, 0.00, 2.75, -89.85, -24.72,  -7.23,-146.74,   6.01, -13.74,  -0.53,   0.12,   0.01,   7.49,-5.59
6, 12779, 1,     0.00, 3,   boost,  -99.87,    0.00,    0.00, 0.00, 0.00, 2.75, -89.85, -24.72,  -7.23,-146.74,   6.01, -13.74,  -0.53,   0.12,   0.01,   7.78,-5.59
6, 12779, 1,     0.00, 3,   boost,  -99.87,    0.00,    0.00, 0.00, 0.00, 2.75, -89.85, -24.72,  -7.23,-146.74,   6.01, -13.74,  -0.53,   0.12,   0.01,   7.89,-5.59
6, 12779, 1,     0.00, 3,   boost,  -99.87,    0.00,    0.00, 0.00, 0.00, 2.75, -89.85, -24.72,  -7.23,-146.74,   6.01, -13.74,  -0.53,   0.12,   0.01,   7.75,-5.59
6, 12779, 1,     0.01, 3,   boost, -106.18,    0.00,    0.00, 0.00, 0.02, 2.75, -96.15,   3.31,  -1.05,-126.90,  24.99, -42.12,  -0.53,   0.12,   0.01,   7.29,-5.59
6, 12779, 1,     0.01, 3,   boost, -106.18,    0.00,    0.00, 0.00, 0.02, 2.75, -96.15,   3.31,  -1.05,-126.90,  24.99, -42.12,  -0.53,   0.12,   0.01,   7.29,-5.59
6, 12779, 1,     0.02, 3,   boost, -103.60,    0.00,    0.00, 0.00, 0.00, 2.75, -93.58,  -6.88,  -2.84,-155.46,  21.39, -42.73,  -0.53,   0.13,   0.02,   6.85,-5.59
6, 12779, 1,     0.03, 3,   boost, -105.64,    0.00,    0.00, 0.00, 0.00, 2.75, -95.62, -14.03,  -6.98,-117.99,  12.85, -23.14,  -0.53,   0.13,   0.02,   6.60,-5.59
6, 12779, 1,     0.04, 3,   boost, -105.30,    0.00,    0.00, 0.00, 0.01, 2.75, -95.28,   2.49,  -2.31,-110.24,   4.97,  -9.59,  -0.53,   0.14,   0.02,   6.50,-5.59
6, 12779, 1,     0.05, 3,   boost, -105.15,    0.00,    0.00, 0.00, 0.01, 2.75, -95.13, -17.41,  -1.63, -81.12,   7.66,  -2.27,  -0.53,   0.14,   0.02,   6.43,-5.59
6, 12779, 1,     0.06, 3,   boost, -105.20,    0.00,    0.00, 0.00, 0.00, 2.75, -95.18, -15.11,  -8.12, -30.10,   3.45,  -0.68,  -0.53,   0.14,   0.02,   6.40,-5.59
6, 12779, 1,     0.07, 3,   boost, -106.51,    0.00,    0.00, 0.00, 0.01, 2.76, -96.48, -14.80,  -0.85,  33.32,   1.50,  -6.11,  -0.53,   0.14,   0.02,   6.35,-5.59
6, 12779, 1,     0.08, 3,   boost, -106.88,    0.00,    0.00, 0.00, 0.00, 2.75, -96.85, -19.71,  -7.92,  78.97,   2.90, -19.54,  -0.53,   0.14,   0.02,   6.19,-5.59
6, 12779, 1,     0.09, 3,   boost, -108.97,    0.00,    0.00, 0.00, 0.00, 2.76, -98.94,   3.48,   2.04,  99.30,   8.58, -34.37,  -0.53,   0.13,   0.02,   5.91,-5.59
6, 12779, 1,     0.10, 3,   boost, -106.90,    0.00,    0.00, 0.00, 0.00, 2.76, -96.87, -20.99,  -4.51, 170.59,   7.54, -24.18,  -0.53,   0.13,   0.02,   5.70,-5.59
6, 12779, 1,     0.11, 3,   boost, -109.66,    0.00,    0.00, 0.00, 0.00, 2.76, -99.63,   3.82,  -1.77, 176.26,  -5.16,  17.63,  -0.53,   0.12,   0.02,   5.84,-5.59
6, 12779, 1,     0.12, 3,   boost, -110.65,    0.00,    0.00, 0.00, 0.00, 2.75,-100.62,   7.39,   4.88, 173.03,  -4.00,   3.53,  -0.53,   0.12,   0.01,   5.90,-5.59
6, 12779, 1,     0.13, 3,   boost, -109.50,    0.00,    0.00, 0.00, 0.00, 2.75, -99.47, -10.99,  -7.81, 186.58,  -2.04,   2.92,  -0.53,   0.11,   0.01,   5.93,-5.59
6, 12779, 1,     0.14, 3,   boost, -110.64,    0.00,    0.00, 0.00, 0.00, 2.75,-100.60,   0.37,   1.08, 204.89,  -3.39,   6.22,  -0.53,   0.10,   0.01,   5.99,-5.59
6, 12779, 1,     0.15, 3,   boost, -110.37,    0.00,    0.00, 0.00, 0.00, 2.75,-100.34,  -2.65,  -4.55, 198.60,  -4.91,   6.89,  -0.53,   0.10,   0.01,   6.07,-5.59
6, 12779, 1,     0.16, 3,   boost, -110.97,    0.00,    0.00, 0.00, 0.01, 2.75,-100.93,  -1.77,  -1.23, 200.49,  -5.16,   7.32,  -0.53,   0.09,   0.00,   6.15,-5.59
6, 12779, 1,     0.17, 3,   boost, -111.19,    0.00,    0.00, 0.00, 0.00, 2.75,-101.16,  -1.46,  -1.03, 200.43,  -5.95,   7.74,  -0.53,   0.09,  -0.00,   6.24,-5.59
6, 12779, 1,     0.18, 3,   boost, -111.72,    0.00,    0.00, 0.00, 0.00, 2.75,-101.69,  -1.26,  -1.64, 198.54,  -6.74,   8.23,  -0.53,   0.08,  -0.00,   6.33,-5.59
6, 12779, 1,     0.19, 3,   boost, -111.59,    0.00,    0.00, 0.00, 0.00, 2.75,-101.56,  -1.42,  -0.33, 196.53,  -7.17,   8.78,  -0.53,   0.07,  -0.01,   6.43,-5.59
6, 12779, 1,     0.20, 3,   boost, -111.35,    0.00,    0.00, 0.00, 0.00, 2.75,-101.31,  -1.36,  -1.42, 194.51,  -8.45,   8.96,  -0.53,   0.07,  -0.01,   6.54,-5.59
6, 12779, 1,     0.21, 3,   boost, -112.49,    0.00,    0.00, 0.00, 0.01, 2.76,-102.46,  -1.62,  -0.51, 192.56,  -8.94,   9.70,  -0.53,   0.06,  -0.02,   6.66,-5.59
6, 12779, 1,     0.22, 3,   boost, -112.25,    0.00,    0.00, 0.00, 0.00, 2.75,-102.22,  -1.59,  -1.24, 190.12, -10.16,  10.06,  -0.53,   0.05,  -0.02,   6.79,-5.59
6, 12779, 1,     0.23, 3,   boost, -113.17,    0.00,    0.00, 0.00, 0.01, 2.75,-103.13,  -1.89,  -0.78, 185.05, -10.04,  10.06,  -0.53,   0.05,  -0.02,   6.91,-5.59
6, 12779, 1,     0.24, 3,   boost, -112.46,    0.00,    0.00, 0.00, 0.01, 2.75,-102.42,  -1.95,  -1.40, 184.26, -10.35,  11.28,  -0.53,   0.04,  -0.03,   7.04,-5.59
6, 12779, 1,     0.25, 3,   boost, -112.90,    0.00,    0.00, 0.00, 0.02, 2.76,-102.86,  -2.05,  -1.16, 183.65, -11.32,  11.59,  -0.53,   0.04,  -0.03,   7.18,-5.59
6, 12779, 1,     0.26, 3,   boost, -113.18,    0.00,    0.00, 0.00, 0.01, 2.75,-103.15,  -2.08,  -1.50, 182.31, -12.54,  12.75,  -0.53,   0.03,  -0.04,   7.34,-5.59
6, 12779, 1,     0.27, 3,   boost, -113.51,    0.00,    0.00, 0.00, 0.00, 2.75,-103.48,  -2.03,  -1.26, 181.51, -13.34,  12.81,  -0.53,   0.03,  -0.05,   7.49,-5.59
6, 12779, 1,     0.28, 3,   boost, -113.35,    0.00,    0.00, 0.00, 0.01, 2.75,-103.31,  -2.03,  -1.44, 180.41, -14.43,  13.79,  -0.53,   0.03,  -0.05,   7.66,-5.59
6, 12779, 1,     0.29, 3,   boost, -114.05,    0.00,    0.00, 0.00, 0.00, 2.75,-104.02,  -1.91,  -1.35, 177.97, -15.53,  14.09,  -0.53,   0.02,  -0.06,   7.84,-5.59
6, 12779, 1,     0.30, 3,   boost, -113.53,    0.00,    0.00, 0.00, 0.02, 2.75,-103.49,  -2.00,  -1.44, 176.14, -16.69,  14.27,  -0.53,   0.02,  -0.06,   8.03,-5.59
6, 12779, 1,     0.31, 3,   boost, -113.81,    0.00,    0.00, 0.00, 0.02, 2.75,-103.77,  -1.93,  -1.33, 173.70, -17.30,  15.31,  -0.53,   0.01,  -0.07,   8.22,-5.59
6, 12779, 1,     0.32, 3,   boost, -113.94,    0.00,    0.00, 0.00, 0.01, 2.75,-103.90,  -2.04,  -1.36, 172.17, -19.32,  15.86,  -0.53,   0.01,  -0.08,   8.44,-5.59
6, 12779, 1,     0.33, 3,   boost, -115.09,    0.00,    0.00, 0.00, 0.01, 2.75,-105.05,  -1.96,  -1.29, 169.98, -20.23,  16.66,  -0.53,   0.01,  -0.08,   8.66,-5.59
6, 12779, 1,     0.34, 3,   boost, -113.92,    0.00,    0.00, 0.00, 0.00, 2.75,-103.89,  -1.98,  -1.30, 168.21, -21.27,  17.02,  -0.53,   0.00,  -0.09,   8.89,-5.59
6, 12779, 1,     0.35, 3,   boost, -115.10,    0.00,    0.00, 0.01, 0.00, 2.75,-105.06,  -2.03,  -1.16, 165.89, -22.55,  17.88,  -0.53,  -0.00,  -0.10,   9.13,-5.59
6, 12779, 1,     0.36, 3,   boost, -114.56,    0.00,    0.00, 0.00, 0.01, 2.75,-104.52,  -1.89,  -1.26, 163.81, -23.59,  18.36,  -0.53,  -0.01,  -0.10,   9.38,-5.59
6, 12779, 1,     0.37, 3,   boost, -115.00,    0.00,    0.00, 0.00, 0.01, 2.75,-104.96,  -1.98,  -1.02, 162.04, -24.69,  18.73,  -0.53,  -0.01,  -0.11,   9.64,-5.59
6, 12779, 1,     0.38, 3,   boost, -115.06,    0.00,    0.00, 0.00, 0.00, 2.75,-105.02,  -1.91,  -1.21, 160.15, -25.36,  18.97,  -0.53,  -0.01,  -0.12,   9.91,-5.59
6, 12779, 1,     0.39, 3,   boost, -115.49,    0.00,    0.00, 0.00, 0.00, 2.76,-105.45,  -1.92,  -1.01, 158.01, -26.58,  19.77,  -0.53,  -0.01,  -0.12,  10.18,-5.59
6, 12779, 1,     0.40, 3,   boost, -116.41,    0.00,    0.00, 0.00, 0.01, 2.76,-106.36,  -1.83,  -1.19, 154.41, -26.95,  19.65,  -0.53,  -0.02,  -0.13,  10.46,-5.59
6, 12779, 1,     0.41, 3,   boost, -116.82,    0.00,    0.00, 0.00, 0.00, 2.76,-106.78,  -1.98,  -1.11, 152.58, -27.37,  20.38,  -0.53,  -0.02,  -0.14,  10.74,-5.59
6, 12779, 1,     0.42, 3,   boost, -116.41,    0.00,    0.00, 0.00, 0.00, 2.76,-106.36,  -1.85,  -1.01, 151.12, -28.11,  20.62,  -0.53,  -0.02,  -0.14,  11.03,-5.59
6, 12779, 1,     0.43, 3,   boost, -116.48,    0.00,    0.00, 0.00, 0.01, 2.75,-106.44,  -1.75,  -0.94, 149.22, -28.23,  20.99,  -0.53,  -0.02,  -0.15,  11.31,-5.59
6, 12779, 1,     0.44, 3,   boost, -116.28,    0.00,    0.00, 0.01, 0.00, 2.75,-106.24,  -1.82,  -0.87, 147.76, -29.21,  21.17,  -0.53,  -0.02,  -0.16,  11.61,-5.59
6, 12779, 1,     0.45, 3,   boost, -117.57,    0.00,    0.00, 0.00, 0.00, 2.75,-107.53,  -1.82,  -0.83, 145.44, -29.82,  21.35,  -0.53,  -0.03,  -0.17,  11.90,-5.59
6, 12779, 1,     0.46, 3,   boost, -116.32,    0.00,    0.00, 0.00, 0.00, 2.75,-106.28,  -1.77,  -0.76, 142.75, -30.12,  21.66,  -0.52,  -0.02,  -0.18,  12.20,-5.59
6, 12779, 1,     0.47, 3,   boost, -117.54,    0.00,    0.00, 0.00, 0.00, 2.75,-107.50,  -1.80,  -0.63, 141.35, -29.82,  21.48,  -0.52,  -0.02,  -0.19,  12.50,-5.59
6, 12779, 1,     0.48, 3,   boost, -117.31,    0.00,    0.00, 0.00, 0.00, 2.75,-107.27,  -1.78,  -0.58, 140.01, -29.82,  21.72,  -0.52,  -0.03,  -0.19,  12.79,-5.59
6, 12779, 1,     0.49, 3,   boost, -118.31,    0.00,    0.00, 0.00, 0.00, 2.75,-108.27,  -1.65,  -0.47, 138.85, -30.06,  21.84,  -0.52,  -0.03,  -0.19,  13.09,-5.59
6, 12779, 1,     0.50, 3,   boost, -118.28,    0.00,    0.00, 0.00, 0.00, 2.76,-108.23,  -1.66,  -0.52, 137.38, -29.69,  21.66,  -0.52,  -0.03,  -0.20,  13.38,-5.59
6, 12779, 1,     0.51, 3,   boost, -117.89,    0.00,    0.00, 0.00, 0.01, 2.75,-107.84,  -1.66,  -0.37, 136.10, -29.08,  21.66,  -0.52,  -0.03,  -0.21,  13.66,-5.59
6, 12779, 1,     0.52, 3,   boost, -118.77,    0.00,    0.00, 0.00, 0.00, 2.75,-108.73,  -1.60,  -0.22, 134.88, -28.72,  21.42,  -0.52,  -0.03,  -0.21,  13.94,-5.59
6, 12779, 1,     0.53, 3,   boost, -118.92,    0.00,    0.00, 0.00, 0.00, 2.75,-108.87,  -1.61,  -0.21, 133.84, -28.35,  21.35,  -0.52,  -0.03,  -0.22,  14.21,-5.59
6, 12779, 1,     0.54, 3,   boost, -118.62,    0.00,    0.00, 0.00, 0.00, 2.75,-108.58,  -1.52,  -0.16, 132.68, -27.74,  21.29,  -0.52,  -0.03,  -0.23,  14.47,-5.59
6, 12779, 1,     0.55, 3,   boost, -119.47,    0.00,    0.00, 0.00, 0.01, 2.76,-109.42,  -1.52,   0.14, 131.52, -26.95,  21.29,  -0.52,  -0.03,  -0.24,  14.72,-5.59
6, 12779, 1,     0.56, 3,   boost, -118.57,    0.00,    0.00, 0.00, 0.01, 2.75,-108.53,  -1.45,  -0.18, 130.12, -25.36,  20.74,  -0.51,  -0.03,  -0.24,  14.96,-5.59
6, 12779, 1,     0.57, 3,   boost, -119.49,    0.00,    0.00, 0.01, 0.00, 2.75,-109.44,  -1.21,   0.32, 128.41, -24.26,  20.38,  -0.51,  -0.03,  -0.25,  15.18,-5.59
6, 12779, 1,     0.58, 3,   boost, -119.43,    0.00,    0.00, 0.01, 0.01, 2.75,-109.38,  -1.34,  -0.03, 128.04, -23.04,  20.01,  -0.51,  -0.03,  -0.25,  15.39,-5.59
6, 12779, 1,     0.59, 3,   boost, -118.70,    0.00,    0.00, 0.00, 0.00, 2.75,-108.66,  -1.19,   0.50, 127.31, -21.70,  19.95,  -0.51,  -0.03,  -0.26,  15.59,-5.59
6, 12779, 1,     0.60, 3,   boost, -119.86,    0.00,    0.00, 0.00, 0.00, 2.75,-109.81,  -1.11,   0.35, 125.97, -19.87,  19.65,  -0.51,  -0.03,  -0.27,  15.76,-5.59
6, 12779, 1,     0.61, 3,   boost, -119.40,    0.00,    0.00, 0.00, 0.00, 2.75,-109.35,  -1.39,   0.52, 124.81, -17.97,  18.73,  -0.51,  -0.03,  -0.28,  15.92,-5.59
6, 12779, 1,     0.62, 3,   boost, -119.17,    0.00,    0.00, 0.01, 0.01, 2.76,-109.12,  -1.08,   0.57, 124.14, -16.20,  18.73,  -0.51,  -0.02,  -0.28,  16.06,-5.59
6, 12779, 1,     0.63, 3,   boost, -120.05,    0.00,    0.00, 0.00, 0.01, 2.75,-110.00,  -1.42,   0.50, 123.22, -14.37,  18.06,  -0.50,  -0.02,  -0.29,  16.17,-5.59
6, 12779, 1,     0.64, 3,   boost, -118.92,    0.00,    0.00, 0.00, 0.02, 2.75,-108.88,  -1.06,   0.72, 122.06, -11.87,  17.75,  -0.51,  -0.03,  -0.29,  16.26,-5.59
6, 12779, 1,     0.65, 3,   boost, -119.41,    0.00,    0.00, 0.00, 0.02, 2.75,-109.37,  -1.23,   0.79, 121.09, -10.16,  17.33,  -0.51,  -0.02,  -0.29,  16.34,-5.59
6, 12779, 1,     0.66, 3,   boost, -119.13,    0.00,    0.00, 0.00, 0.00, 2.75,-109.08,  -1.01,   0.91, 120.48,  -7.72,  16.66,  -0.51,  -0.02,  -0.30,  16.38,-5.59
6, 12779, 1,     0.67, 3,   boost, -119.81,    0.00,    0.00, 0.00, 0.02, 2.75,-109.76,  -0.91,   0.93, 119.13,  -6.01,  16.11,  -0.50,  -0.02,  -0.30,  16.41,-5.59
6, 12779, 1,     0.68, 3,   boost, -120.05,    0.00,    0.00, 0.00, 0.00, 2.75,-110.00,  -1.09,   0.95, 117.42,  -3.33,  15.13,  -0.50,  -0.02,  -0.30,  16.42,-5.59
6, 12779, 1,     0.69, 3,   boost, -119.33,    0.00,    0.00, 0.00, 0.01, 2.76,-109.29,  -0.87,   0.84, 116.63,  -1.37,  14.70,  -0.50,  -0.02,  -0.31,  16.40,-5.59
6, 12779, 1,     0.70, 3,   boost, -119.98,    0.00,    0.00, 0.01, 0.00, 2.75,-109.94,  -1.03,   0.88, 115.90,   0.58,  13.79,  -0.50,  -0.02,  -0.31,  16.37,-5.59
6, 12779, 1,     0.71, 3,   boost, -119.52,    0.00,    0.00, 0.00, 0.00, 2.75,-109.48,  -0.84,   0.85, 114.62,   3.02,  13.42,  -0.50,  -0.01,  -0.31,  16.31,-5.59
6, 12779, 1,     0.72, 3,   boost, -120.07,    0.00,    0.00, 0.01, 0.02, 2.76,-110.02,  -0.87,   0.95, 113.03,   5.34,  12.38,  -0.50,  -0.01,  -0.32,  16.23,-5.59
6, 12779, 1,     0.73, 3,   boost, -119.78,    0.00,    0.00, 0.00, 0.01, 2.75,-109.73,  -0.62,   0.70, 111.57,   7.54,  11.35,  -0.50,  -0.01,  -0.32,  16.12,-5.59
6, 12779, 1,     0.74, 3,   boost, -119.56,    0.00,    0.00, 0.00, 0.01, 2.75,-109.51,  -0.83,   0.89, 109.19,   9.43,  10.80,  -0.50,  -0.01,  -0.32,  16.00,-5.59
6, 12779, 1,     0.75, 3,   boost, -119.85,    0.00,    0.00, 0.01, 0.00, 2.76,-109.81,  -0.61,   0.52, 107.42,  11.87,   9.94,  -0.50,  -0.00,  -0.33,  15.86,-5.59
6, 12779, 1,     0.76, 3,   boost, -119.70,    0.00,    0.00, 0.00, 0.00, 2.75,-109.65,  -0.76,   0.69, 105.95,  13.82,   9.39,  -0.50,   0.00,  -0.33,  15.70,-5.59
6, 12779, 1,     0.77, 3,   boost, -119.59,    0.00,    0.00, 0.01, 0.01, 2.75,-109.55,  -0.51,   0.19, 103.94,  15.53,   8.72,  -0.50,   0.00,  -0.33,  15.53,-5.59
6, 12779, 1,     0.78, 3,   boost, -120.44,    0.00,    0.00, 0.00, 0.00, 2.75,-110.39,  -0.78,   0.34, 101.43,  16.94,   7.87,  -0.50,   0.01,  -0.34,  15.34,-5.59
6, 12779, 1,     0.79, 3,   boost, -119.61,    0.00,    0.00, 0.00, 0.00, 2.75,-109.56,  -0.53,   0.11,  99.79,  19.01,   7.26,  -0.50,   0.01,  -0.33,  15.14,-5.59
6, 12779, 1,     0.80, 3,   boost, -120.73,    0.00,    0.00, 0.00, 0.00, 2.75,-110.68,  -0.68,  -0.09,  96.92,  19.56,   6.34,  -0.50,   0.01,  -0.33,  14.93,-5.59
6, 12779, 1,     0.81, 3,   boost, -120.75,    0.00,    0.00, 0.00, 0.00, 2.75,-110.70,  -0.65,  -0.38,  93.74,  20.11,   5.61,  -0.50,   0.01,  -0.33,  14.73,-5.59
6, 12779, 1,     0.82, 3,   boost, -120.11,    0.00,    0.00, 0.00, 0.00, 2.76,-110.06,  -0.70,  -0.43,  92.16,  20.60,   5.06,  -0.50,   0.01,  -0.33,  14.52,-5.59
6, 12779, 1,     0.83, 3,   boost, -120.20,    0.00,    0.00, 0.00, 0.00, 2.75,-110.15,  -0.53,  -0.75,  89.96,  20.97,   3.90,  -0.51,   0.02,  -0.34,  14.31,-5.59
6, 12779, 1,     0.84, 3,   boost, -119.78,    0.00,    0.00, 0.00, 0.00, 2.76,-109.73,  -0.51,  -0.62,  87.70,  20.66,   3.78,  -0.51,   0.02,  -0.34,  14.11,-5.59
6, 12779, 1,     0.85, 3,   boost, -120.95,    0.00,    0.00, 0.00, 0.01, 2.75,-110.90,  -0.28,  -0.96,  84.95,  20.42,   2.74,  -0.51,   0.02,  -0.34,  13.91,-5.59
6, 12779, 1,     0.86, 3,   boost, -120.18,    0.00,    0.00, 0.00, 0.00, 2.75,-110.13,  -0.47,  -0.83,  81.90,  19.93,   2.19,  -0.51,   0.02,  -0.34,  13.72,-5.59
6, 12779, 1,     0.87, 3,   boost, -120.87,    0.00,    0.00, 0.00, 0.01, 2.75,-110.82,  -0.76,  -1.32,  79.28,  19.38,   1.03,  -0.51,   0.02,  -0.34,  13.55,-5.59
6, 12779, 1,     0.88, 3,   boost, -120.56,    0.00,    0.00, 0.00, 0.00, 2.75,-110.51,  -0.35,  -1.29,  76.53,  18.28,  -0.01,  -0.51,   0.03,  -0.34,  13.39,-5.59
6, 12779, 1,     0.89, 3,   boost, -119.94,    0.00,    0.00, 0.00, 0.01, 2.76,-109.89,  -0.93,  -1.32,  73.48,  17.55,  -0.37,  -0.51,   0.03,  -0.34,  13.24,-5.59
6, 12779, 1,     0.90, 3,   boost, -120.44,    0.00,    0.00, 0.00, 0.01, 2.75,-110.39,  -0.19,  -1.79,  71.53,  16.51,  -0.80,  -0.51,   0.03,  -0.34,  13.11,-5.59
6, 12779, 1,     0.91, 3,   boost, -119.83,    0.00,    0.00, 0.00, 0.00, 2.75,-109.78,  -0.73,  -1.79,  68.84,  15.11,  -1.41,  -0.51,   0.03,  -0.34,  12.99,-5.59
6, 12779, 1,     0.92, 3,   boost, -119.77,    0.00,    0.00, 0.00, 0.00, 2.75,-109.73,  -0.44,  -1.81,  66.95,  13.52,  -1.90,  -0.51,   0.04,  -0.34,  12.89,-5.59
6, 12779, 1,     0.93, 3,   boost, -119.94,    0.00,    0.00, 0.00, 0.00, 2.75,-109.89,  -0.73,  -2.01,  65.12,  12.12,  -2.88,  -0.51,   0.04,  -0.34,  12.80,-5.59
6, 12779, 1,     0.94, 3,   boost, -120.13,    0.00,    0.00, 0.00, 0.00, 2.75,-110.09,  -0.45,  -2.13,  64.08,   9.80,  -2.88,  -0.51,   0.04,  -0.34,  12.74,-5.59
6, 12779, 1,     0.95, 3,   boost, -120.32,    0.00,    0.00, 0.00, 0.02, 2.75,-110.27,  -0.75,  -2.26,  62.13,   7.84,  -3.30,  -0.51,   0.04,  -0.34,  12.70,-5.59
6, 12779, 1,     0.96, 3,   boost, -119.90,    0.00,    0.00, 0.00, 0.00, 2.75,-109.85,  -0.64,  -2.24,  59.99,   5.65,  -4.16,  -0.51,   0.04,  -0.34,  12.68,-5.59
6, 12779, 1,     0.97, 3,   boost, -120.30,    0.00,    0.00, 0.00, 0.00, 2.75,-110.25,  -0.75,  -2.41,  58.22,   3.63,  -4.16,  -0.51,   0.05,  -0.35,  12.68,-5.59
6, 12779, 1,     0.98, 3,   boost, -120.56,    0.00,    0.00, 0.00, 0.00, 2.75,-110.51,  -0.72,  -2.42,  57.00,   1.37,  -4.40,  -0.51,   0.05,  -0.35,  12.70,-5.59
6, 12779, 1,     0.99, 3,   boost, -120.56,    0.00,    0.00, 0.00, 0.00, 2.75,-110.51,  -0.76,  -2.58,  55.78,  -0.64,  -4.95,  -0.51,   0.05,  -0.35,  12.74,-5.59
6, 12779, 1,     1.00, 3,   boost, -120.22,    0.00,    0.00, 0.00, 0.01, 2.75,-110.17,  -0.69,  -2.51,  55.17,  -2.72,  -5.26,  -0.51,   0.05,  -0.35,  12.79,-5.59
6, 12779, 1,     1.01, 3,   boost, -119.33,    0.00,    0.00, 0.00, 0.00, 2.75,-109.29,  -0.68,  -2.31,  53.58,  -4.67,  -5.50,  -0.51,   0.06,  -0.35,  12.86,-5.59
6, 12779, 1,     1.02, 3,   boost, -119.74,    0.00,    0.00, 0.00, 0.00, 2.75,-109.70,  -0.83,  -2.07,  51.51,  -6.50,  -5.62,  -0.51,   0.06,  -0.35,  12.95,-5.59
6, 12779, 1,     1.03, 3,   boost, -119.80,    0.00,    0.00, 0.00, 0.00, 2.75,-109.75,  -0.88,  -1.82,  49.92,  -8.21,  -5.68,  -0.51,   0.06,  -0.35,  13.05,-5.59
6, 12779, 1,     1.04, 3,   boost, -119.28,    0.00,    0.00, 0.00, 0.01, 2.75,-109.23,  -1.06,  -1.83,  46.38,  -9.80,  -5.81,  -0.51,   0.06,  -0.36,  13.16,-5.59
6, 12779, 1,     1.05, 3,   boost, -119.43,    0.00,    0.00, 0.00, 0.02, 2.76,-109.38,  -1.35,  -1.72,  45.16, -11.08,  -5.93,  -0.51,   0.06,  -0.36,  13.28,-5.59
6, 12779, 1,     1.06, 3,   boost, -118.65,    0.00,    0.00, 0.00, 0.01, 2.75,-108.61,  -1.38,  -1.57,  43.88, -12.05,  -5.50,  -0.51,   0.07,  -0.36,  13.40,-5.59
6, 12779, 1,     1.07, 3,   boost, -119.56,    0.00,    0.00, 0.00, 0.02, 2.76,-109.52,  -1.36,  -1.42,  41.99, -13.28,  -5.07,  -0.51,   0.07,  -0.36,  13.53,-5.59
6, 12779, 1,     1.08, 3,   boost, -119.38,    0.00,    0.00, 0.00, 0.00, 2.75,-109.33,  -1.32,  -1.26,  40.15, -13.58,  -4.71,  -0.51,   0.07,  -0.36,  13.66,-5.59
6, 12779, 1,     1.09, 3,   boost, -118.82,    0.00,    0.00, 0.00, 0.01, 2.75,-108.78,  -1.28,  -0.99,  39.61, -14.07,  -4.16,  -0.51,   0.07,  -0.36,  13.79,-5.59
6, 12779, 1,     1.10, 3,   boost, -120.21,    0.00,    0.00, 0.00, 0.01, 2.75,-110.16,  -1.42,  -0.59,  37.77, -14.07,  -3.85,  -0.51,   0.07,  -0.37,  13.92,-5.59
6, 12779, 1,     1.11, 3,   boost, -118.74,    0.00,    0.00, 0.00, 0.00, 2.75,-108.70,  -1.62,  -0.23,  37.04, -14.01,  -3.49,  -0.51,   0.07,  -0.37,  14.04,-5.59
6, 12779, 1,     1.12, 3,   boost, -118.66,    0.00,    0.00, 0.00, 0.00, 2.75,-108.61,  -1.54,  -0.12,  35.70, -12.97,  -2.94,  -0.51,   0.08,  -0.37,  14.16,-5.59
6, 12779, 1,     1.13, 3,   boost, -119.17,    0.00,    0.00, 0.00, 0.00, 2.75,-109.12,  -2.07,  -0.11,  33.62, -12.12,  -2.51,  -0.51,   0.08,  -0.37,  14.26,-5.59
6, 12779, 1,     1.14, 3,   boost, -118.05,    0.00,    0.00, 0.00, 0.00, 2.75,-108.01,  -1.94,   0.19,  31.79, -10.35,  -1.59,  -0.51,   0.08,  -0.37,  14.34,-5.59
6, 12779, 1,     1.15, 3,   boost, -119.25,    0.00,    0.00, 0.00, 0.02, 2.75,-109.20,  -1.98,   0.26,  31.55,  -8.39,  -0.56,  -0.51,   0.08,  -0.37,  14.41,-5.59
6, 12779, 1,     1.16, 3,   boost, -118.26,    0.00,    0.00, 0.00, 0.01, 2.75,-108.22,  -1.91,   0.50,  30.63,  -6.81,   0.66,  -0.51,   0.08,  -0.37,  14.45,-5.59
6, 12779, 1,     1.17, 3,   boost, -118.29,    0.00,    0.00, 0.00, 0.01, 2.75,-108.25,  -1.64,   0.37,  29.96,  -4.85,   2.01,  -0.51,   0.08,  -0.38,  14.47,-5.59
6, 12779, 1,     1.18, 3,   boost, -118.13,    0.00,    0.00, 0.00, 0.01, 2.75,-108.08,  -1.82,   0.51,  27.64,  -2.90,   2.80,  -0.51,   0.08,  -0.38,  14.47,-5.59
6, 12779, 1,     1.19, 3,   boost, -117.59,    0.00,    0.00, 0.02, 0.00, 2.75,-107.54,  -1.59,   0.33,  25.75,  -1.25,   3.59,  -0.51,   0.08,  -0.38,  14.45,-5.59
6, 12779, 1,     1.20, 3,   boost, -117.92,    0.00,    0.00, 0.00, 0.01, 2.75,-107.87,  -1.63,   0.32,  24.59,   0.70,   4.27,  -0.51,   0.08,  -0.38,  14.42,-5.59
6, 12779, 1,     1.21, 3,   boost, -117.27,    0.00,    0.00, 0.00, 0.01, 2.75,-107.23,  -1.42,   0.19,  23.31,   2.23,   4.75,  -0.51,   0.08,  -0.38,  14.37,-5.59
6, 12779, 1,     1.22, 3,   boost, -117.64,    0.00,    0.00, 0.00, 0.00, 2.75,-107.59,  -1.47,   0.04,  22.21,   3.57,   5.00,  -0.51,   0.08,  -0.38,  14.31,-5.59
6, 12779, 1,     1.23, 3,   boost, -117.05,    0.00,    0.00, 0.00, 0.00, 2.76,-107.00,  -1.14,  -0.22,  20.01,   5.22,   5.79,  -0.51,   0.08,  -0.38,  14.23,-5.59
6, 12779, 1,     1.24, 3,   boost, -116.65,    0.00,    0.00, 0.00, 0.00, 2.75,-106.61,  -1.24,  -0.09,  18.43,   6.07,   5.49,  -0.51,   0.08,  -0.38,  14.15,-5.59
6, 12779, 1,     1.25, 3,   boost, -117.00,    0.00,    0.00, 0.00, 0.00, 2.75,-106.96,  -0.76,  -0.32,  18.43,   6.68,   5.36,  -0.51,   0.08,  -0.38,  14.06,-5.59
6, 12779, 1,     1.26, 3,   boost, -115.92,    0.00,    0.00, 0.00, 0.00, 2.75,-105.88,  -0.95,  -0.37,  17.02,   7.54,   5.12,  -0.51,   0.08,  -0.38,  13.97,-5.59
6, 12779, 1,     1.27, 3,   boost, -116.18,    0.00,    0.00, 0.00, 0.00, 2.75,-106.14,  -0.74,  -0.63,  14.89,   8.09,   4.57,  -0.51,   0.08,  -0.38,  13.89,-5.59
6, 12779, 1,     1.28, 3,   boost, -115.91,    0.00,    0.00, 0.00, 0.00, 2.75,-105.87,  -0.65,  -0.93,  14.15,   7.90,   3.78,  -0.51,   0.08,  -0.37,  13.81,-5.59
6, 12779, 1,     1.29, 3,   boost, -115.78,    0.00,    0.00, 0.00, 0.01, 2.75,-105.74,  -0.65,  -1.18,  12.14,   7.90,   3.04,  -0.51,   0.08,  -0.37,  13.73,-5.59
6, 12779, 1,     1.30, 3,   boost, -115.88,    0.00,    0.00, 0.00, 0.01, 2.75,-105.84,  -0.63,  -1.47,  10.25,   7.23,   2.25,  -0.51,   0.09,  -0.37,  13.66,-5.59
6, 12779, 1,     1.31, 3,   boost, -115.03,    0.00,    0.00, 0.00, 0.00, 2.75,-104.99,  -0.60,  -1.45,   9.64,   6.38,   1.09,  -0.51,   0.09,  -0.37,  13.61,-5.59
6, 12779, 1,     1.32, 3,   boost, -113.95,    0.00,    0.00, 0.00, 0.01, 2.75,-103.91,  -0.40,  -1.82,  10.06,   5.22,  -0.19,  -0.51,   0.09,  -0.37,  13.58,-5.59
6, 12779, 1,     1.33, 3,   boost, -113.82,    0.00,    0.00, 0.00, 0.01, 2.75,-103.78,  -0.52,  -1.60,   9.94,   4.00,  -1.29,  -0.51,   0.09,  -0.37,  13.56,-5.59
6, 12779, 1,     1.34, 3,   boost, -114.11,    0.00,    0.00, 0.00, 0.00, 2.76,-104.07,  -0.34,  -2.03,   9.76,   2.66,  -2.27,  -0.51,   0.09,  -0.37,  13.56,-5.59
6, 12779, 1,     1.35, 3,   boost, -115.69,    0.00,    0.00, 0.00, 0.00, 2.75,-105.65,  -0.20,  -1.62,   8.11,   1.86,  -3.24,  -0.51,   0.09,  -0.37,  13.58,-5.59
6, 12779, 1,     1.36, 3,   boost, -114.45,    0.00,    0.00, 0.00, 0.02, 2.75,-104.41,  -0.86,  -1.37,   7.74,   0.40,  -3.85,  -0.51,   0.09,  -0.37,  13.60,-5.59
6, 12779, 1,     1.37, 3,   boost, -112.90,    0.00,    0.00, 0.00, 0.02, 2.76,-102.86,  -0.78,  -2.00,   5.97,  -1.13,  -4.40,  -0.51,   0.09,  -0.37,  13.64,-5.59
6, 12779, 1,     1.38, 3,   boost, -112.12,    0.00,    0.00, 0.00, 0.02, 2.75,-102.08,  -1.10,  -1.81,   6.16,  -2.90,  -5.01,  -0.51,   0.09,  -0.37,  13.70,-5.59
6, 12779, 1,     1.39, 3,   boost, -111.80,    0.00,    0.00, 0.00, 0.00, 2.75,-101.77,  -1.05,  -1.95,   5.67,  -4.49,  -5.38,  -0.51,   0.09,  -0.37,  13.77,-5.59
6, 12779, 1,     1.40, 3,   boost, -112.59,    0.00,    0.00, 0.00, 0.00, 2.76,-102.56,  -1.48,  -1.75,   6.22,  -5.34,  -5.32,  -0.51,   0.09,  -0.38,  13.85,-5.59
6, 12779, 1,     1.41, 3,   boost, -113.97,    0.00,    0.00, 0.00, 0.01, 2.75,-103.93,  -1.49,  -1.39,   5.85,  -6.13,  -5.68,  -0.51,   0.09,  -0.38,  13.93,-5.59
6, 12779, 1,     1.42, 3,   boost, -111.23,    0.00,    0.00, 0.00, 0.01, 2.75,-101.19,  -1.59,  -1.52,   7.50,  -6.74,  -4.95,  -0.51,   0.09,  -0.38,  14.01,-5.59
6, 12779, 1,     1.43, 3,   boost, -110.78,    0.00,    0.00, 0.00, 0.01, 2.75,-100.75,  -1.09,  -0.46,   6.40,  -6.99,  -4.71,  -0.51,   0.09,  -0.38,  14.09,-5.59
6, 12779, 1,     1.44, 3,   boost, -110.00,    0.00,    0.00, 0.00, 0.01, 2.75, -99.97,  -1.44,  -0.75,   7.13,  -6.26,  -4.52,  -0.51,   0.09,  -0.38,  14.17,-5.59
6, 12779, 1,     1.45, 3,   boost, -110.02,    0.00,    0.00, 0.00, 0.00, 2.75, -99.98,  -1.33,  -0.31,   5.24,  -6.44,  -3.85,  -0.51,   0.09,  -0.38,  14.24,-5.59
6, 12779, 1,     1.46, 3,   boost, -111.52,    0.00,    0.00, 0.00, 0.01, 2.75,-101.49,  -2.66,  -0.11,   3.04,  -5.65,  -2.88,  -0.51,   0.09,  -0.38,  14.30,-5.59
6, 12779, 1,     1.47, 3,   boost, -109.67,    0.00,    0.00, 0.00, 0.01, 2.75, -99.64,  -1.74,  -0.44,   2.13,  -5.04,  -2.27,  -0.51,   0.09,  -0.38,  14.35,-5.59
6, 12779, 1,     1.48, 3,   boost, -109.04,    0.00,    0.00, 0.00, 0.01, 2.76, -99.01,  -2.31,  -0.30,  -0.37,  -4.24,  -1.47,  -0.51,   0.09,  -0.38,  14.38,-5.59
6, 12779, 1,     1.49, 3,   boost, -109.10,    0.00,    0.00, 0.00, 0.00, 2.75, -99.07,  -1.65,  -0.59,  -0.07,  -3.45,  -0.80,  -0.51,   0.09,  -0.38,  14.41,-5.59
6, 12779, 1,     1.50, 3,   boost, -108.87,    0.00,    0.00, 0.00, 0.01, 2.75, -98.84,  -2.26,  -0.14,   0.73,  -2.72,  -0.13,  -0.51,   0.09,  -0.38,  14.43,-5.59
6, 12779, 1,     1.51, 3,   boost, -109.08,    0.00,    0.00, 0.00, 0.00, 2.75, -99.05,  -1.80,  -0.45,   1.40,  -1.62,   0.66,  -0.51,   0.09,  -0.38,  14.44,-5.59
6, 12779, 1,     1.52, 3,   boost, -109.73,    0.00,    0.00, 0.00, 0.01, 2.75, -99.70,  -1.69,   0.02,   2.43,  -0.21,   1.46,  -0.51,   0.09,  -0.38,  14.43,-5.59
6, 12779, 1,     1.53, 3,   boost, -109.54,    0.00,    0.00, 0.00, 0.00, 2.75, -99.50,  -1.36,  -0.32,   0.24,   0.58,   2.43,  -0.51,   0.09,  -0.38,  14.40,-5.59
6, 12779, 1,     1.54, 3,   boost, -108.41,    0.00,    0.00, 0.00, 0.01, 2.76, -98.38,  -1.65,  -0.24,   1.34,   1.37,   2.25,  -0.51,   0.09,  -0.38,  14.38,-5.59
6, 12779, 1,     1.55, 3,   boost, -106.74,    0.00,    0.00, 0.00, 0.01, 2.75, -96.72,  -1.68,  -0.45,   0.60,   2.53,   2.92,  -0.51,   0.09,  -0.38,  14.34,-5.59
6, 12779, 1,     1.56, 3,   boost, -103.35,    0.00,    0.00, 0.00, 0.00, 2.75, -93.32,  -1.26,  -0.62,  -0.74,   3.20,   2.80,  -0.51,   0.09,  -0.38,  14.30,-5.59
6, 12779, 1,     1.57, 3,   boost,  -98.99,    0.00,    0.00, 0.00, 0.02, 2.75, -88.97,  -1.41,  -0.77,   0.60,   3.81,   2.80,  -0.51,   0.09,  -0.38,  14.25,-5.59
6, 12779, 1,     1.58, 3,   boost,  -94.83,    0.00,    0.00, 0.00, 0.00, 2.75, -84.82,  -1.11,  -0.76,   1.34,   3.94,   2.13,  -0.51,   0.09,  -0.38,  14.21,-5.59
6, 12779, 1,     1.59, 3,   boost,  -91.11,    0.00,    0.00, 0.00, 0.00, 2.75, -81.10,  -0.75,  -0.72,   1.40,   4.18,   1.82,  -0.51,   0.09,  -0.38,  14.17,-5.59
6, 12779, 1,     1.60, 3,   boost,  -88.21,    0.00,    0.00, 0.00, 0.00, 2.75, -78.21,  -0.67,  -0.77,  -0.98,   4.24,   0.79,  -0.51,   0.09,  -0.38,  14.14,-5.59
6, 12779, 1,     1.61, 3,   boost,  -85.24,    0.00,    0.00, 0.00, 0.01, 2.75, -75.24,  -1.03,  -0.82,  -0.74,   4.18,  -0.25,  -0.51,   0.09,  -0.38,  14.11,-5.59
6, 12779, 1,     1.62, 3,   boost,  -82.40,    0.00,    0.00, 0.00, 0.01, 2.75, -72.40,  -1.11,  -0.57,   0.42,   3.69,  -0.56,  -0.51,   0.09,  -0.38,  14.09,-5.59
6, 12779, 1,     1.63, 3,   boost,  -78.11,    0.00,    0.00, 0.00, 0.01, 2.76, -68.12,  -0.89,  -0.94,  -1.04,   4.18,  -1.35,  -0.51,   0.09,  -0.38,  14.07,-5.59
6, 12779, 1,     1.64, 3,   boost,  -72.65,    0.00,    0.00, 0.00, 0.00, 2.75, -62.67,  -0.84,  -1.73,  -1.29,   3.94,  -1.84,  -0.51,   0.09,  -0.38,  14.06,-5.59
6, 12779, 1,     1.65, 3,   boost,  -68.57,    0.00,    0.00, 0.00, 0.00, 2.76, -58.60,  -1.07,  -1.35,  -2.33,   3.20,  -2.39,  -0.51,   0.09,  -0.38,  14.06,-5.59
6, 12779, 1,     1.66, 3,   boost,  -59.49,    0.00,    0.00, 0.00, 0.01, 2.75, -49.54,  -1.08,  -2.34,  -1.78,   2.04,  -3.06,  -0.51,   0.09,  -0.38,  14.07,-5.59
6, 12779, 1,     1.67, 3,   boost,  -50.92,    0.00,    0.00, 0.00, 0.01, 2.76, -40.97,  -1.16,  -1.79,  -0.43,   0.58,  -3.73,  -0.51,   0.09,  -0.38,  14.10,-5.59
6, 12779, 1,     1.68, 3,   boost,  -45.21,    0.00,    0.00, 0.00, 0.02, 2.75, -35.27,  -1.19,  -1.62,  -0.62,  -0.58,  -3.61,  -0.51,   0.09,  -0.38,  14.13,-5.59
6, 12779, 1,     1.69, 3,   boost,  -39.71,    0.00,    0.00, 0.00, 0.00, 2.75, -29.78,  -1.23,  -1.72,   0.30,  -1.80,  -3.55,  -0.51,   0.09,  -0.38,  14.17,-5.59
6, 12779, 1,     1.70, 3,   boost,  -35.52,    0.00,    0.00, 0.00, 0.00, 2.75, -25.60,  -1.30,  -1.34,  -1.11,  -2.90,  -3.24,  -0.51,   0.09,  -0.38,  14.21,-5.59
6, 12779, 1,     1.71, 3,   boost,  -33.97,    0.00,    0.00, 0.00, 0.02, 2.75, -24.05,  -1.22,  -1.31,  -0.25,  -4.00,  -3.30,  -0.51,   0.10,  -0.38,  14.26,-5.59
6, 12779, 1,     1.72, 3,   boost,  -32.87,    0.00,    0.00, 0.00, 0.01, 2.76, -22.95,  -1.56,  -1.08,  -1.53,  -4.36,  -3.00,  -0.51,   0.09,  -0.38,  14.31,-5.59
6, 12779, 1,     1.73, 3,   boost,  -28.07,    0.00,    0.00, 0.00, 0.00, 2.75, -18.15,  -1.31,  -0.96,  -1.96,  -4.85,  -2.82,  -0.51,   0.09,  -0.38,  14.37,-5.59
6, 12779, 1,     1.74, 3,   boost,  -23.61,    0.00,    0.00, 0.00, 0.02, 2.75, -13.70,  -1.40,  -0.57,  -3.61,  -4.97,  -2.45,  -0.51,   0.09,  -0.38,  14.42,-5.59
6, 12779, 1,     1.75, 3,   boost,  -20.09,    0.00,    0.00, 0.00, 0.01, 2.75, -10.19,  -1.45,  -0.75,  -3.12,  -4.73,  -2.39,  -0.51,   0.09,  -0.38,  14.46,-5.59
6, 12779, 1,     1.76, 3,   boost,  -16.44,    0.00,    0.00, 0.00, 0.00, 2.75,  -6.54,  -1.57,  -0.60,  -3.91,  -3.08,  -2.08,  -0.51,   0.09,  -0.38,  14.50,-5.59
6, 12779, 1,     1.77, 3,   boost,  -14.00,    0.00,    0.00, 0.00, 0.00, 2.76,  -4.11,  -1.35,  -0.27,  -0.86,  -3.57,  -1.84,  -0.51,   0.10,  -0.38,  14.54,-5.59
6, 12779, 1,     1.78, 3,   boost,  -11.54,    0.00,    0.00, 0.00, 0.01, 2.75,  -1.65,  -1.36,  -0.37,  -1.65,  -2.04,  -1.66,  -0.51,   0.10,  -0.38,  14.56,-5.59
6, 12779, 1,     1.79, 3,   boost,   -9.66,    0.00,    0.00, 0.00, 0.00, 2.75,   0.23,  -1.40,   0.06,  -1.84,  -1.50,  -2.02,  -0.51,   0.10,  -0.38,  14.59,-5.59
6, 12779, 1,     1.80, 3,   boost,   -8.07,    0.00,    0.00, 0.00, 0.01, 2.75,   1.82,  -1.52,  -0.21,  -2.39,   0.21,  -2.14,  -0.51,   0.10,  -0.38,  14.60,-5.59
6, 12779, 1,     1.81, 3,   boost,   -6.73,    0.00,    0.00, 0.00, 0.00, 2.75,   3.15,  -1.82,  -0.42,  -2.81,   1.74,  -1.59,  -0.51,   0.10,  -0.38,  14.60,-5.59
6, 12779, 1,     1.82, 3,   boost,   -5.66,    0.00,    0.00, 0.00, 0.00, 2.75,   4.22,  -1.40,  -0.17,  -2.08,   2.90,  -1.66,  -0.51,   0.10,  -0.38,  14.60,-5.59
6, 12779, 1,     1.83, 3,   boost,   -4.53,    0.00,    0.00, 0.00, 0.01, 2.75,   5.35,  -2.21,  -0.59,  -1.04,   4.12,  -1.41,  -0.51,   0.10,  -0.38,  14.58,-5.59
6, 12779, 1,     1.84, 3,   boost,   -3.80,    0.00,    0.00, 0.00, 0.00, 2.75,   6.08,  -1.63,  -0.55,  -0.98,   4.61,  -0.43,  -0.51,   0.09,  -0.38,  14.56,-5.59
6, 12779, 1,     1.85, 3,   boost,   -2.94,    0.00,    0.00, 0.00, 0.00, 2.76,   6.93,  -1.83,  -0.69,  -2.39,   4.30,   0.42,  -0.51,   0.10,  -0.38,  14.53,-5.59
6, 12779, 1,     1.86, 3,   boost,   -2.51,    0.00,    0.00, 0.00, 0.00, 2.75,   7.36,  -1.90,  -1.29,  -2.45,   4.73,   0.73,  -0.51,   0.09,  -0.38,  14.49,-5.59
6, 12779, 1,     1.87, 3,   boost,   -2.19,    0.00,    0.00, 0.00, 0.01, 2.75,   7.68,  -1.21,  -0.68,  -2.94,   5.04,   0.91,  -0.51,   0.10,  -0.38,  14.45,-5.59
6, 12779, 1,     1.88, 3,   boost,   -1.26,    0.00,    0.00, 0.00, 0.00, 2.75,   8.61,  -1.95,  -2.18,  -2.69,   3.14,   1.46,  -0.51,   0.09,  -0.37,  14.42,-5.59
6, 12779, 1,     1.89, 3,   boost,   -0.55,    0.00,    0.00, 0.00, 0.01, 2.75,   9.32,  -1.11,  -1.39,  -0.74,   2.53,   1.82,  -0.51,   0.09,  -0.38,  14.39,-5.59
6, 12779, 1,     1.90, 3,   boost,   -0.19,    0.00,    0.00, 0.00, 0.01, 2.76,   9.68,  -1.56,  -1.95,  -1.78,   1.07,   1.95,  -0.51,   0.09,  -0.37,  14.37,-5.59
6, 12779, 1,     1.91, 3,   boost,    0.10,    0.00,    0.00, 0.00, 0.00, 2.75,   9.97,  -1.00,  -1.60,  -0.13,  -0.34,   1.70,  -0.51,   0.09,  -0.38,  14.36,-5.59
6, 12779, 1,     1.92, 3,   boost,    0.35,    0.00,    0.00, 0.00, 0.00, 2.76,  10.22,  -0.88,  -1.65,   0.42,  -1.98,   1.34,  -0.51,   0.09,  -0.37,  14.36,-5.59
6, 12779, 1,     1.93, 3,   boost,    0.57,    0.00,    0.00, 0.00, 0.02, 2.75,  10.44,  -0.95,  -1.30,  -0.25,  -3.27,   1.03,  -0.51,   0.09,  -0.38,  14.37,-5.59
6, 12779, 1,     1.94, 3,   boost,    0.64,    0.00,    0.00, 0.00, 0.01, 2.75,  10.51,  -0.90,  -1.24,   1.34,  -4.49,   0.42,  -0.51,   0.09,  -0.38,  14.40,-5.59
6, 12779, 1,     1.95, 3,   boost,    0.72,    0.00,    0.00, 0.00, 0.01, 2.76,  10.59,  -0.90,  -1.01,   0.91,  -5.22,  -0.19,  -0.51,   0.09,  -0.38,  14.43,-5.59
6, 12779, 1,     1.96, 3,   boost,    0.79,    0.00,    0.00, 0.00, 0.00, 2.75,  10.66,  -0.60,  -0.79,   1.21,  -5.40,  -0.31,  -0.51,   0.09,  -0.38,  14.47,-5.59
6, 12779, 1,     1.97, 3,   boost,    0.83,    0.00,    0.00, 0.00, 0.00, 2.75,  10.70,  -0.65,  -0.68,  -1.29,  -5.04,  -1.23,  -0.51,   0.09,  -0.38,  14.51,-5.59
6, 12779, 1,     1.98, 3,   boost,    0.91,    0.00,    0.00, 0.00, 0.01, 2.75,  10.78,  -0.68,  -0.69,  -0.31,  -5.10,  -1.96,  -0.51,   0.09,  -0.38,  14.56,-5.59
6, 12779, 1,     1.99, 3,   boost,    0.93,    0.00,    0.00, 0.00, 0.00, 2.75,  10.80,  -0.73,  -0.85,  -1.90,  -4.55,  -2.57,  -0.51,   0.09,  -0.38,  14.61,-5.59
6, 12779, 1,     2.00, 3,   boost,    1.09,    0.00,    0.00, 0.00, 0.00, 2.75,  10.96,  -0.89,  -0.55,  -2.88,  -4.91,  -2.94,  -0.51,   0.09,  -0.38,  14.66,-5.59
6, 12779, 1,     2.01, 3,   boost,    1.01,    0.00,    0.00, 0.00, 0.01, 2.75,  10.88,  -0.88,  -0.58,  -3.42,  -3.69,  -3.43,  -0.51,   0.10,  -0.38,  14.71,-5.59
6, 12779, 1,     2.02, 3,   boost,    1.09,    0.00,    0.00, 0.00, 0.00, 2.75,  10.96,  -0.99,  -0.37,  -3.36,  -3.51,  -3.73,  -0.51,   0.10,  -0.38,  14.76,-5.59
6, 12779, 1,     2.03, 3,   boost,    1.12,    0.00,    0.00, 0.00, 0.00, 2.75,  10.98,  -1.21,  -0.31,  -4.10,  -2.35,  -4.04,  -0.51,   0.10,  -0.38,  14.81,-5.59
6, 12779, 1,     2.04, 3,   boost,    1.15,    0.00,    0.00, 0.00, 0.01, 2.75,  11.02,  -1.34,  -0.19,  -4.34,  -1.07,  -3.91,  -0.51,   0.10,  -0.38,  14.85,-5.59
6, 12779, 1,     2.05, 3,   boost,    1.15,    0.00,    0.00, 0.00, 0.00, 2.76,  11.02,  -1.46,  -0.09,  -5.56,  -0.40,  -3.61,  -0.51,   0.10,  -0.38,  14.88,-5.59
6, 12779, 1,     2.06, 3,   boost,    1.17,    0.00,    0.00, 0.00, 0.00, 2.75,  11.04,  -1.57,  -0.30,  -4.40,   0.52,  -3.00,  -0.51,   0.10,  -0.38,  14.90,-5.59
6, 12779, 1,     2.07, 3,   boost,    1.26,    0.00,    0.00, 0.00, 0.00, 2.75,  11.13,  -1.61,  -0.48,  -3.91,   1.62,  -2.45,  -0.51,   0.10,  -0.38,  14.90,-5.59
6, 12779, 1,     2.08, 3,   boost,    1.26,    0.00,    0.00, 0.00, 0.00, 2.75,  11.13,  -1.50,  -0.32,  -6.05,   2.04,  -1.53,  -0.51,   0.10,  -0.38,  14.90,-5.59
6, 12779, 1,     2.09, 3,   boost,    1.29,    0.00,    0.00, 0.00, 0.00, 2.75,  11.16,  -1.73,  -0.63,  -6.05,   2.96,  -0.80,  -0.51,   0.09,  -0.38,  14.89,-5.59
6, 12779, 1,     2.10, 5,   coast,    1.26,    0.00,    0.00, 0.00, 0.00, 2.75,  11.13,  -1.51,  -0.63,  -6.23,   2.72,   0.18,  -0.51,   0.09,  -0.38,  14.87,-5.59
6, 12779, 1,     2.10, 5,   coast,    1.26,    0.00,    0.00, 0.00, 0.00, 2.75,  11.13,  -1.51,  -0.63,  -6.23,   2.72,   0.18,  -0.51,   0.09,  -0.38,  14.87,-5.59
6, 12779, 1,     2.11, 5,   coast,    1.30,    0.00,    0.00, 0.00, 0.00, 2.75,  11.16,  -1.24,  -0.16,  -4.58,   3.20,   0.85,  -0.51,   0.09,  -0.38,  14.84,-5.59
6, 12779, 1,     2.12, 5,   coast,    1.30,    0.00,    0.00, 0.00, 0.02, 2.75,  11.17,  -1.16,  -0.48,  -4.46,   3.45,   1.34,  -0.51,   0.09,  -0.38,  14.81,-5.59
6, 12779, 1,     2.13, 5,   coast,    1.32,    0.00,    0.00, 0.01, 0.00, 2.75,  11.19,  -1.28,  -0.78,  -5.01,   4.61,   1.40,  -0.51,   0.09,  -0.38,  14.77,-5.59
6, 12779, 1,     2.14, 5,   coast,    1.19,    0.00,    0.00, 0.00, 0.00, 2.75,  11.06,  -1.13,  -0.85,  -3.06,   4.85,   1.40,  -0.51,   0.09,  -0.38,  14.73,-5.59
6, 12779, 1,     2.15, 5,   coast,    1.24,    0.00,    0.00, 0.00, 0.00, 2.75,  11.11,  -1.24,  -1.01,  -3.36,   4.12,   1.15,  -0.51,   0.09,  -0.38,  14.69,-5.59
6, 12779, 1,     2.16, 5,   coast,    1.24,    0.00,    0.00, 0.00, 0.00, 2.75,  11.11,  -1.21,  -1.26,  -3.18,   3.63,   1.27,  -0.51,   0.09,  -0.37,  14.66,-5.59
6, 12779, 1,     2.17, 5,   coast,    1.26,    0.00,    0.00, 0.00, 0.02, 2.76,  11.13,  -0.92,  -0.88,  -4.04,   2.78,   1.03,  -0.51,   0.09,  -0.38,  14.64,-5.59
6, 12779, 1,     2.18, 5,   coast,    1.21,    0.00,    0.00, 0.00, 0.00, 2.75,  11.08,  -1.16,  -1.13,  -3.06,   2.78,   0.91,  -0.51,   0.09,  -0.37,  14.61,-5.59
6, 12779, 1,     2.19, 5,   coast,    1.27,    0.00,    0.00, 0.00, 0.00, 2.75,  11.14,  -1.06,  -0.87,  -3.06,   1.80,   0.66,  -0.51,   0.09,  -0.37,  14.60,-5.59
6, 12779, 1,     2.20, 5,   coast,    1.22,    0.00,    0.00, 0.00, 0.00, 2.75,  11.09,  -1.18,  -1.32,  -3.36,   2.11,   0.54,  -0.51,   0.09,  -0.37,  14.58,-5.59
6, 12779, 1,     2.21, 5,   coast,    1.21,    0.00,    0.00, 0.00, 0.00, 2.75,  11.08,  -0.69,  -1.11,  -3.06,   1.13,   0.66,  -0.51,   0.09,  -0.37,  14.57,-5.59
6, 12779, 1,     2.22, 5,   coast,    1.16,    0.00,    0.00, 0.00, 0.00, 2.75,  11.03,  -0.67,  -0.92,  -3.55,   0.40,   0.24,  -0.51,   0.09,  -0.37,  14.56,-5.59
6, 12779, 1,     2.23, 5,   coast,    1.19,    0.00,    0.00, 0.00, 0.02, 2.75,  11.06,  -0.68,  -0.85,  -3.97,  -0.27,  -0.56,  -0.51,   0.09,  -0.37,  14.57,-5.59
6, 12779, 1,     2.24, 5,   coast,    1.09,    0.00,    0.00, 0.00, 0.01, 2.75,  10.96,  -0.80,  -0.82,  -4.34,  -0.46,  -1.17,  -0.51,   0.09,  -0.37,  14.58,-5.59
6, 12779, 1,     2.25, 5,   coast,    1.08,    0.00,    0.00, 0.00, 0.00, 2.75,  10.95,  -0.67,  -0.93,  -3.61,  -0.58,  -1.66,  -0.51,   0.09,  -0.38,  14.60,-5.59
6, 12779, 1,     2.26, 5,   coast,    1.04,    0.00,    0.00, 0.00, 0.00, 2.75,  10.91,  -0.73,  -0.74,  -3.67,  -1.07,  -2.33,  -0.51,   0.09,  -0.37,  14.62,-5.59
6, 12779, 1,     2.27, 5,   coast,    1.05,    0.00,    0.00, 0.00, 0.01, 2.75,  10.92,  -0.95,  -0.68,  -2.45,  -0.82,  -2.69,  -0.51,   0.09,  -0.37,  14.65,-5.59
6, 12779, 1,     2.28, 5,   coast,    1.06,    0.00,    0.00, 0.00, 0.00, 2.76,  10.93,  -0.66,  -0.72,  -3.36,  -1.01,  -2.69,  -0.51,   0.09,  -0.37,  14.67,-5.59
6, 12779, 1,     2.29, 5,   coast,    0.99,    0.00,    0.00, 0.00, 0.00, 2.75,  10.86,  -0.83,  -0.50,  -4.04,  -1.01,  -3.00,  -0.51,   0.09,  -0.37,  14.70,-5.59
6, 12779, 1,     2.30, 5,   coast,    0.97,    0.00,    0.00, 0.00, 0.00, 2.75,  10.84,  -0.91,  -0.53,  -4.89,  -0.40,  -3.61,  -0.51,   0.09,  -0.37,  14.73,-5.59
6, 12779, 1,     2.31, 5,   coast,    0.91,    0.00,    0.00, 0.00, 0.00, 2.75,  10.78,  -1.01,  -0.60,  -4.16,   0.03,  -3.61,  -0.51,   0.09,  -0.37,  14.76,-5.59
6, 12779, 1,     2.32, 5,   coast,    0.87,    0.00,    0.00, 0.00, 0.00, 2.76,  10.74,  -1.31,  -0.56,  -4.71,   0.15,  -3.97,  -0.51,   0.09,  -0.37,  14.79,-5.59
6, 12779, 1,     2.33, 5,   coast,    0.88,    0.00,    0.00, 0.00, 0.01, 2.75,  10.75,  -1.31,  -0.55,  -5.99,  -0.09,  -3.36,  -0.51,   0.09,  -0.37,  14.82,-5.59
6, 12779, 1,     2.34, 5,   coast,    0.68,    0.00,    0.00, 0.00, 0.00, 2.75,  10.55,  -1.21,  -0.68,  -4.40,   1.19,  -2.94,  -0.51,   0.09,  -0.37,  14.83,-5.59
6, 12779, 1,     2.35, 5,   coast,    0.81,    0.00,    0.00, 0.00, 0.01, 2.75,  10.68,  -1.16,  -0.85,  -4.28,   1.01,  -2.75,  -0.51,   0.09,  -0.37,  14.85,-5.59
6, 12779, 1,     2.36, 5,   coast,    0.78,    0.00,    0.00, 0.00, 0.00, 2.75,  10.65,  -1.34,  -0.72,  -4.28,   0.76,  -2.57,  -0.51,   0.09,  -0.37,  14.86,-5.59
6, 12779, 1,     2.37, 5,   coast,    0.69,    0.00,    0.00, 0.00, 0.01, 2.75,  10.56,  -1.47,  -1.04,  -4.71,   0.70,  -1.90,  -0.51,   0.09,  -0.37,  14.87,-5.59
6, 12779, 1,     2.38, 5,   coast,    0.71,    0.00,    0.00, 0.00, 0.00, 2.75,  10.58,  -1.29,  -0.89,  -4.16,   0.95,  -1.47,  -0.51,   0.09,  -0.37,  14.88,-5.59
6, 12779, 1,     2.39, 5,   coast,    0.69,    0.00,    0.00, 0.00, 0.02, 2.75,  10.56,  -1.50,  -1.12,  -4.28,   0.34,  -0.74,  -0.51,   0.09,  -0.37,  14.88,-5.59
6, 12779, 1,     2.40, 5,   coast,    0.65,    0.00,    0.00, 0.00, 0.01, 2.76,  10.53,  -1.25,  -0.88,  -2.69,  -0.21,  -0.37,  -0.51,   0.09,  -0.37,  14.88,-5.59
6, 12779, 1,     2.41, 5,   coast,    0.62,    0.00,    0.00, 0.00, 0.01, 2.75,  10.49,  -1.31,  -0.80,  -3.73,   0.34,   0.30,  -0.51,   0.09,  -0.37,  14.88,-5.59
6, 12779, 1,     2.42, 5,   coast,    0.60,    0.00,    0.00, 0.00, 0.00, 2.75,  10.47,  -1.26,  -0.88,  -4.10,  -0.27,   0.36,  -0.51,   0.09,  -0.37,  14.88,-5.59
6, 12779, 1,     2.43, 5,   coast,    0.53,    0.00,    0.00, 0.00, 0.00, 2.75,  10.40,  -1.14,  -0.59,  -3.85,  -0.15,   0.73,  -0.51,   0.09,  -0.37,  14.87,-5.59
6, 12779, 1,     2.44, 5,   coast,    0.55,    0.00,    0.00, 0.00, 0.00, 2.75,  10.42,  -1.11,  -0.80,  -2.88,   0.27,   0.30,  -0.51,   0.09,  -0.37,  14.87,-5.59
6, 12779, 1,     2.45, 5,   coast,    0.40,    0.00,    0.00, 0.00, 0.01, 2.75,  10.27,  -1.21,  -1.03,  -2.57,  -0.03,   0.60,  -0.51,   0.09,  -0.37,  14.87,-5.59
6, 12779, 1,     2.46, 5,   coast,    0.47,    0.00,    0.00, 0.00, 0.02, 2.76,  10.35,  -1.12,  -1.11,  -3.42,  -0.21,   0.60,  -0.51,   0.09,  -0.37,  14.86,-5.59
6, 12779, 1,     2.47, 5,   coast,    0.33,    0.00,    0.00, 0.01, 0.00, 2.75,  10.20,  -1.26,  -1.08,  -3.85,  -1.01,   0.36,  -0.51,   0.09,  -0.37,  14.87,-5.59
6, 12779, 1,     2.48, 5,   coast,    0.32,    0.00,    0.00, 0.00, 0.02, 2.75,  10.19,  -1.23,  -0.96,  -2.20,  -1.50,   1.27,  -0.51,   0.09,  -0.37,  14.87,-5.59
6, 12779, 1,     2.49, 5,   coast,    0.35,    0.00,    0.00, 0.00, 0.00, 2.75,  10.22,  -1.42,  -1.15,  -3.49,  -1.86,   0.85,  -0.51,   0.09,  -0.37,  14.87,-5.59
6, 12779, 1,     2.50, 5,   coast,    0.33,    0.00,    0.00, 0.00, 0.01, 2.75,  10.20,  -1.59,  -0.70,  -3.85,  -2.23,   1.88,  -0.51,   0.09,  -0.37,  14.87,-5.59
6, 12779, 1,     2.51, 5,   coast,    0.32,    0.00,    0.00, 0.00, 0.00, 2.75,  10.19,  -1.34,  -0.47,  -4.46,  -1.62,   2.31,  -0.51,   0.09,  -0.37,  14.86,-5.59
6, 12779, 1,     2.52, 5,   coast,    0.37,    0.00,    0.00, 0.00, 0.01, 2.75,  10.24,  -1.72,  -0.06,  -5.56,  -1.56,   3.11,  -0.51,   0.09,  -0.37,  14.85,-5.59
6, 12779, 1,     2.53, 5,   coast,    0.17,    0.00,    0.00, 0.00, 0.00, 2.75,  10.04,  -1.28,  -0.08,  -6.42,  -0.95,   4.20,  -0.51,   0.09,  -0.37,  14.83,-5.59
6, 12779, 1,     2.54, 5,   coast,    0.22,    0.00,    0.00, 0.00, 0.01, 2.75,  10.09,  -1.55,  -0.39,  -6.17,   0.03,   4.75,  -0.51,   0.09,  -0.37,  14.79,-5.59
6, 12779, 1,     2.55, 5,   coast,    0.17,    0.00,    0.00, 0.00, 0.00, 2.76,  10.04,  -1.08,  -0.75,  -6.05,   0.95,   5.18,  -0.51,   0.09,  -0.37,  14.74,-5.59
6, 12779, 1,     2.56, 5,   coast,    0.06,    0.00,    0.00, 0.00, 0.01, 2.75,   9.93,  -0.57,  -1.32,  -5.50,   0.76,   5.06,  -0.51,   0.09,  -0.37,  14.70,-5.59
6, 12779, 1,     2.57, 5,   coast,    0.02,    0.00,    0.00, 0.00, 0.01, 2.75,   9.89,  -0.51,  -0.93,  -6.72,   0.46,   4.63,  -0.51,   0.09,  -0.37,  14.66,-5.59
6, 12779, 1,     2.58, 5,   coast,    0.01,    0.00,    0.00, 0.00, 0.01, 2.75,   9.89,  -0.70,  -1.23,  -6.66,   0.27,   3.17,  -0.51,   0.09,  -0.37,  14.64,-5.59
6, 12779, 1,     2.59, 5,   coast,    0.07,    0.00,    0.00, 0.01, 0.00, 2.75,   9.94,  -1.02,  -1.16,  -5.68,  -0.46,   2.80,  -0.51,   0.09,  -0.37,  14.62,-5.59
6, 12779, 1,     2.60, 5,   coast,   -0.04,    0.00,    0.00, 0.00, 0.01, 2.75,   9.84,  -1.21,  -0.83,  -4.16,  -0.64,   2.86,  -0.51,   0.09,  -0.37,  14.60,-5.59
6, 12779, 1,     2.61, 5,   coast,   -0.04,    0.00,    0.00, 0.00, 0.00, 2.75,   9.83,  -0.97,  -1.51,  -4.46,  -0.95,   2.80,  -0.51,   0.09,  -0.37,  14.59,-5.59
6, 12779, 1,     2.62, 5,   coast,   -0.01,    0.00,    0.00, 0.00, 0.01, 2.75,   9.86,  -0.63,  -0.69,  -3.73,  -1.80,   2.19,  -0.51,   0.09,  -0.37,  14.58,-5.59
6, 12779, 1,     2.63, 5,   coast,   -0.12,    0.00,    0.00, 0.00, 0.01, 2.76,   9.76,  -0.78,  -0.98,  -4.46,  -1.86,   1.46,  -0.51,   0.09,  -0.37,  14.58,-5.59
6, 12779, 1,     2.64, 5,   coast,   -0.19,    0.00,    0.00, 0.00, 0.00, 2.75,   9.68,  -0.52,  -0.75,  -4.83,  -1.92,   0.97,  -0.51,   0.08,  -0.37,  14.59,-5.59
6, 12779, 1,     2.65, 5,   coast,   -0.21,    0.00,    0.00, 0.00, 0.00, 2.75,   9.66,  -0.83,  -0.82,  -4.95,  -1.92,   0.60,  -0.51,   0.08,  -0.37,  14.60,-5.59
6, 12779, 1,     2.66, 5,   coast,   -0.19,    0.00,    0.00, 0.00, 0.01, 2.75,   9.68,  -0.69,  -0.40,  -5.01,  -2.04,  -0.19,  -0.51,   0.08,  -0.37,  14.61,-5.59
6, 12779, 1,     2.67, 5,   coast,   -0.22,    0.00,    0.00, 0.00, 0.02, 2.76,   9.66,  -1.15,  -0.47,  -4.40,  -1.25,  -0.68,  -0.51,   0.08,  -0.37,  14.63,-5.59
6, 12779, 1,     2.68, 5,   coast,   -0.27,    0.00,    0.00, 0.00, 0.00, 2.75,   9.61,  -0.98,  -0.42,  -5.50,  -0.52,  -0.50,  -0.51,   0.08,  -0.37,  14.63,-5.59
6, 12779, 1,     2.69, 5,   coast,   -0.35,    0.00,    0.00, 0.00, 0.01, 2.76,   9.52,  -0.67,  -0.50,  -4.65,   0.03,  -0.74,  -0.51,   0.08,  -0.37,  14.64,-5.59
6, 12779, 1,     2.70, 5,   coast,   -0.32,    0.00,    0.00, 0.00, 0.00, 2.75,   9.56,  -0.83,  -0.28,  -4.83,   1.31,  -1.23,  -0.51,   0.08,  -0.37,  14.64,-5.59
6, 12779, 1,     2.71, 5,   coast,   -0.35,    0.00,    0.00, 0.00, 0.00, 2.76,   9.52,  -0.66,  -0.74,  -6.23,   1.01,  -1.23,  -0.51,   0.08,  -0.37,  14.64,-5.59
6, 12779, 1,     2.72, 5,   coast,   -0.40,    0.00,    0.00, 0.00, 0.00, 2.75,   9.48,  -0.51,  -0.46,  -6.72,   1.31,  -1.90,  -0.51,   0.08,  -0.37,  14.65,-5.59
6, 12779, 1,     2.73, 5,   coast,   -0.35,    0.00,    0.00, 0.00, 0.00, 2.75,   9.53,  -0.60,  -0.47,  -5.93,   1.62,  -2.27,  -0.51,   0.08,  -0.37,  14.65,-5.59
6, 12779, 1,     2.74, 5,   coast,   -0.39,    0.00,    0.00, 0.00, 0.01, 2.75,   9.48,  -0.79,  -0.55,  -5.44,   2.17,  -2.94,  -0.51,   0.08,  -0.37,  14.66,-5.59
6, 12779, 1,     2.75, 5,   coast,   -0.42,    0.00,    0.00, 0.00, 0.00, 2.75,   9.45,  -0.88,  -0.76,  -6.84,   2.29,  -3.36,  -0.51,   0.08,  -0.37,  14.67,-5.59
6, 12779, 1,     2.76, 5,   coast,   -0.48,    0.00,    0.00, 0.00, 0.00, 2.75,   9.39,  -1.01,  -0.84,  -7.03,   2.53,  -3.61,  -0.51,   0.08,  -0.37,  14.68,-5.59
6, 12779, 1,     2.77, 5,   coast,   -0.49,    0.00,    0.00, 0.00, 0.00, 2.75,   9.38,  -0.95,  -1.03,  -7.27,   2.78,  -3.73,  -0.51,   0.08,  -0.37,  14.69,-5.59
6, 12779, 1,     2.78, 5,   coast,   -0.50,    0.00,    0.00, 0.00, 0.00, 2.75,   9.37,  -0.78,  -0.85,  -4.89,   1.56,  -3.73,  -0.51,   0.08,  -0.37,  14.71,-5.59
6, 12779, 1,     2.79, 5,   coast,   -0.53,    0.00,    0.00, 0.00, 0.00, 2.75,   9.34,  -0.65,  -0.81,  -4.77,   1.68,  -4.28,  -0.51,   0.08,  -0.37,  14.73,-5.59
6, 12779, 1,     2.80, 5,   coast,   -0.55,    0.00,    0.00, 0.00, 0.01, 2.75,   9.33,  -0.89,  -0.96,  -3.67,   1.68,  -4.65,  -0.51,   0.08,  -0.37,  14.75,-5.59
6, 12779, 1,     2.81, 5,   coast,   -0.65,    0.00,    0.00, 0.00, 0.00, 2.75,   9.22,  -0.78,  -1.15,  -3.73,   1.56,  -5.13,  -0.51,   0.09,  -0.37,  14.78,-5.59
6, 12779, 1,     2.82, 5,   coast,   -0.57,    0.00,    0.00, 0.00, 0.00, 2.75,   9.30,  -1.16,  -0.66,  -3.73,   0.70,  -4.95,  -0.51,   0.08,  -0.37,  14.81,-5.59
6, 12779, 1,     2.83, 5,   coast,   -0.65,    0.00,    0.00, 0.00, 0.02, 2.75,   9.22,  -1.13,  -0.49,  -2.57,   1.07,  -4.95,  -0.51,   0.09,  -0.37,  14.84,-5.59
6, 12779, 1,     2.84, 5,   coast,   -0.68,    0.00,    0.00, 0.00, 0.01, 2.75,   9.20,  -1.25,  -0.80,  -4.71,   1.31,  -4.59,  -0.51,   0.09,  -0.37,  14.87,-5.59
6, 12779, 1,     2.85, 5,   coast,   -0.66,    0.00,    0.00, 0.00, 0.01, 2.75,   9.21,  -1.86,  -0.34,  -3.42,   1.56,  -3.97,  -0.51,   0.09,  -0.37,  14.88,-5.59
6, 12779, 1,     2.86, 5,   coast,   -0.74,    0.00,    0.00, 0.00, 0.00, 2.75,   9.13,  -1.91,  -0.80,  -2.81,   1.86,  -2.57,  -0.51,   0.09,  -0.37,  14.89,-5.59
6, 12779, 1,     2.87, 5,   coast,   -0.74,    0.00,    0.00, 0.00, 0.00, 2.75,   9.13,  -1.92,  -1.01,  -3.42,   1.92,  -0.68,  -0.51,   0.09,  -0.37,  14.88,-5.59
6, 12779, 1,     2.88, 5,   coast,   -0.78,    0.00,    0.00, 0.00, 0.01, 2.75,   9.10,  -1.83,  -0.80,  -4.58,   1.56,   0.36,  -0.51,   0.08,  -0.37,  14.87,-5.59
6, 12779, 1,     2.89, 5,   coast,   -0.74,    0.00,    0.00, 0.00, 0.00, 2.75,   9.13,  -2.35,  -0.79,  -5.56,   1.37,   2.07,  -0.51,   0.08,  -0.37,  14.85,-5.59
6, 12779, 1,     2.90, 5,   coast,   -0.86,    0.00,    0.00, 0.00, 0.02, 2.76,   9.02,  -1.98,  -0.81,  -4.71,   1.25,   3.47,  -0.51,   0.08,  -0.37,  14.81,-5.59
6, 12779, 1,     2.91, 5,   coast,   -0.91,    0.00,    0.00, 0.00, 0.01, 2.75,   8.97,  -1.92,  -0.56,  -3.42,   1.50,   5.18,  -0.51,   0.08,  -0.37,  14.76,-5.59
6, 12779, 1,     2.92, 5,   coast,   -0.89,    0.00,    0.00, 0.00, 0.02, 2.75,   8.98,  -1.58,  -0.67,  -2.63,   2.04,   5.97,  -0.51,   0.08,  -0.37,  14.71,-5.59
6, 12779, 1,     2.93, 5,   coast,   -0.90,    0.00,    0.00, 0.00, 0.00, 2.75,   8.97,  -1.32,  -1.01,  -2.69,   1.68,   6.71,  -0.51,   0.08,  -0.37,  14.64,-5.59
6, 12779, 1,     2.94, 5,   coast,   -0.97,    0.00,    0.00, 0.00, 0.01, 2.75,   8.90,  -1.21,  -0.65,  -2.69,   1.19,   7.01,  -0.51,   0.08,  -0.37,  14.58,-5.59
6, 12779, 1,     2.95, 5,   coast,   -0.89,    0.00,    0.00, 0.00, 0.00, 2.75,   8.98,  -0.91,  -1.11,  -2.63,   1.19,   6.83,  -0.51,   0.08,  -0.37,  14.53,-5.59
6, 12779, 1,     2.96, 5,   coast,   -1.04,    0.00,    0.00, 0.00, 0.00, 2.75,   8.83,  -0.78,  -1.11,  -2.57,   0.89,   6.40,  -0.51,   0.08,  -0.37,  14.47,-5.59
6, 12779, 1,     2.97, 5,   coast,   -1.01,    0.00,    0.00, 0.00, 0.00, 2.76,   8.86,  -0.53,  -1.31,  -2.33,   0.27,   5.67,  -0.51,   0.08,  -0.37,  14.43,-5.59
6, 12779, 1,     2.98, 5,   coast,   -1.09,    0.00,    0.00, 0.00, 0.00, 2.76,   8.79,  -0.39,  -1.37,  -2.57,  -0.34,   4.57,  -0.51,   0.08,  -0.37,  14.40,-5.59
